Lat,Long,name,Stage,Icon,MW
54.98444444,-1.516666667,A&P Tyne,Consented,measle_turquoise,
56.13972222,-5.34,AâChruach,Consented,measle_turquoise,
58.43722222,-3.191944444,"Achairn Farm, Stirkoke",Operational,small_red,6.15
58.00444444,-4.531666667,Achany Estate,Operational,small_red,38
55.31083333,-4.171111111,Afton,In planning,measle_grey,
55.92833333,-4.058333333,AG Barr Factory,Consented,measle_turquoise,
55.92666667,-2.457777778,Aikengall,Operational,small_red,48
53.68611111,-1.024722222,Aire and Calder wind farm,In planning,measle_grey,
52.23583333,-0.607777778,Airfield Farm (re-submission),In planning,measle_grey,
50.69416667,-2.179722222,Alaska Wind Farm Re-submission,In planning,measle_grey,
55.96194444,-5.447777778,Allt Dearg,Consented,measle_turquoise,
57.19861111,-3.985555556,Allt Duine,In planning,measle_grey,
51.97833333,-4.250833333,Alltwalis,Operational,small_red,23
54.96,-7.031666667,Altahullion Phase I,Operational,small_red,26
54.96055556,-7.032777778,Altahullion Phase II,Operational,small_red,11.7
54.96055556,-7.032777778,Altahullion Phase III,Consented,measle_turquoise,
54.51833333,-7.105833333,Altamuskin,Consented,measle_turquoise,
54.51833333,-7.105833333,Altamuskin Ext,In planning,measle_grey,
54.62916667,-7.665,Altgolan,In planning,measle_grey,
51.55666667,-2.510277778,Alveston,Consented,measle_turquoise,
56.21805556,-5.219166667,An Suidhe,Operational,small_red,19.3
55.5225,-3.873888889,Andershaw,In planning,measle_grey,
54.73333333,-6.182777778,Antrim Area Hospital,Operational,small_red,0.66
56.28777778,-4.948611111,Ardkinglass/Clachan Flats,Operational,small_red,15.03
55.68583333,-4.807222222,Ardrossan,Operational,small_red,24
55.68583333,-4.807222222,Ardrossan Extension,Operational,small_red,6
55.05333333,-4.882222222,Arecleoch,Operational,small_red,120
56.57166667,-3.049722222,Ark Hill,Consented,measle_turquoise,
54.27611111,-2.641944444,Armistead,Consented,measle_turquoise,
58.17833333,-6.4275,Arnish Moor,Operational,small_red,3.9
54.96611111,-4.766388889,Artfield Fell,Operational,small_red,19.5
54.96611111,-4.766388889,Artfield Fell Ext (Balmurrie),Consented,measle_turquoise,
56.01833333,-3.764444444,"ASDA depot, New Bankside Industrial Estate",Consented,measle_turquoise,
52.78166667,-0.935555556,Asfordby,In planning,measle_grey,
54.18722222,-3.172222222,Askam,Operational,small_red,4.62
55.22222222,-4.814166667,Assel Valley,In planning,measle_grey,
55.21527778,-3.649166667,Auchencairn,In planning,measle_grey,
57.40722222,-1.933333333,Auchenten,In planning,measle_grey,
57.57972222,-2.041666667,Auchtygills Farm,Consented,measle_turquoise,
53.29527778,-1.088055556,B&amp;Q Worksop,Operational,small_red,2
53.63722222,-0.632777778,Bagmoor,Operational,small_red,16
58.38083333,-6.495833333,Baile an Truseil Wind Energy Project,Consented,measle_turquoise,
58.38083333,-6.495833333,Baile an Truseil Wind Energy Project Phase 1,Consented,measle_turquoise,
58.38083333,-6.495833333,Baile an Truseil Wind Energy Project Phase 2,Consented,measle_turquoise,
58.04777778,-4.127777778,Baillie Wind farm - Bardnaheigh Farm,Under construction,small_blue,
54.64111111,-5.664444444,Balloo Wood,Operational,small_red,0.8
54.87083333,-7.383055556,Ballylaw,In planning,measle_grey,
54.87666667,-6.233333333,Ballymena Michelin Tyre Factory,Consented,measle_turquoise,
54.38472222,-7.538333333,Ballyreagh / Tempo,Consented,measle_turquoise,
57.58666667,-2.863055556,Balnamoon Farm,Operational,small_red,0.8
53.32111111,0.2325,Bambers Farm,Operational,small_red,4.8
53.3275,0.2325,Bambers Farm II,Operational,small_red,4.8
54.87416667,-4.769444444,Barlockhart Wind Farm,Consented,measle_turquoise,
55.65527778,-2.033333333,Barmoor South Moor,Consented,measle_turquoise,
55.03861111,-3.768333333,Barnbackle,In planning,measle_grey,
52.45055556,-0.585,Barnwell Manor,In planning,measle_grey,
53.98333333,-3.283333333,Barrow,Operational,small_red,90
52.61916667,-3.831666667,BDCR II,Operational,small_red,0.5
50.47305556,-4.953055556,Bears Down,Operational,small_red,9.6
58.10555556,-3.093055556,Beatrice,Operational,small_red,10
51.70805556,-0.436944444,Beaufort Court (RES Office),Operational,small_red,0.225
50.93972222,-3.956944444,Bedport Poultry Farm,In planning,measle_grey,
55.56555556,-5.57,Beinn an Tuirc,Operational,small_red,30.36
55.56555556,-5.57,Beinn an Tuirc Extension,Under construction,small_blue,
56.38305556,-5.272222222,Beinn Ghlas,Operational,small_red,8.4
58.20944444,-6.487777778,Beinn Ghrideag Community Wind Farm,Consented,measle_turquoise,
57.80166667,-4.332222222,Beinn Tharsuinn,Operational,small_red,30
57.80166667,-4.332222222,Beinn Tharsuinn extension (Beinn nan Oighrean),Operational,small_red,4.6
57.115,-4.933055556,Beinneun,In planning,measle_grey,
57.42916667,-6.455,Ben Aketil,Operational,small_red,23
57.42722222,-6.448611111,Ben Aketil extension,Operational,small_red,4.6
51.69472222,-2.410277778,Berkeley Vale,In planning,measle_grey,
58.82916667,-2.933611111,Berriedale Farm,In planning,measle_grey,
57.60972222,-3.62,Berry Burn,Consented,measle_turquoise,
54.68,-7.403333333,Bessy Bell,Operational,small_red,5
54.7225,-7.374722222,Bessy Bell Extension,Operational,small_red,9
58.52416667,-4.223611111,Bettyhill,In planning,measle_grey,
52.92611111,-0.216388889,Bicker Fen,Operational,small_red,26
52.31722222,-0.387777778,Bicton,In planning,measle_grey,
52.05444444,-0.248333333,Biggleswade,Consented,measle_turquoise,
54.705,-7.591111111,Bin Mountain,Operational,small_red,9
22.6425,-38.13138889,Binnwaooda,In planning,measle_grey,
54.0025,-1.510277778,Bishopwood,In planning,measle_grey,
51.19222222,-2.986388889,Black Ditch,In planning,measle_grey,
55.79833333,-2.433888889,Black Hill,Operational,small_red,28.6
55.76694444,-3.738888889,Black Law 1 (Construction Phase 1),Operational,small_red,96.6
55.76694444,-3.738888889,Black Law 1 (Construction Phase 2),Operational,small_red,27.6
55.76694444,-3.738888889,Black Law 1 (Construction Phase 3),Consented,measle_turquoise,
55.76694444,-3.738888889,Black Law Extension,Consented,measle_turquoise,
50.3475,-3.683611111,Blackawton Village Hall,In planning,measle_grey,
55.89777778,-2.372777778,Blackburn Farm,In planning,measle_grey,
55.09166667,-4.109166667,"Blackcraig, Glenkens",Consented,measle_turquoise,
53.5475,-1.704722222,Blackstone Edge,Consented,measle_turquoise,
51.98805556,-4.445277778,Blaen Bowi,Operational,small_red,3.9
55.75666667,-4.109722222,Blantyre Muir Ext,Consented,measle_turquoise,
52.71138889,1.6675,Blood Hill,Operational,small_red,2.25
55.13583333,-1.490277778,Blyth Offshore,Operational,small_red,3.8
29.58527778,54.42472222,Boardinghouse Farm,Consented,measle_turquoise,
52.17888889,-1.277222222,Boddington Reservoir,Consented,measle_turquoise,
57.55527778,-2.1,Bogenjohn Farm,In planning,measle_grey,
57.56027778,-2.291666667,Bogenlea,Consented,measle_turquoise,
51.56277778,-2.960833333,Border Precision Ltd,Consented,measle_turquoise,
58.3,-3.433333333,Boulfruich,Operational,small_red,13
54.89944444,-1.8875,Boundary Lane,In planning,measle_grey,
55.71555556,-3.139722222,Bowbeat,Operational,small_red,31.2
57.64638889,-2.604722222,Boyndie Airfield,Operational,small_red,14
57.64638889,-2.604722222,Boyndie Extension,Operational,small_red,2.3
55.87277778,-3.879444444,Bracco,In planning,measle_grey,
53.59388889,-0.620833333,Bradken UK,In planning,measle_grey,
51.71805556,0.921388889,Bradwell on Sea,Consented,measle_turquoise,
56.27611111,-4.0625,Braes O Doune,Operational,small_red,72
52.96166667,-3.467777778,Braich Ddu Farm,Operational,small_red,3.9
55.87583333,-4.009444444,Braiden Hill,Operational,small_red,0.8
55.15888889,-4.864444444,Breaker Hill,In planning,measle_grey,
52.00944444,-4.079722222,Brechfa Forest East,In planning,measle_grey,
51.97194444,-4.206666667,Brechfa Forest West,In planning,measle_grey,
51.50277778,-2.698888889,Bristol Port Wind Park Ext,In planning,measle_grey,
51.51111111,-2.710277778,Bristol Port Wind Park Ltd,Operational,small_red,6
51.51055556,-2.674444444,Bristol Sewage Treatment Works,Consented,measle_turquoise,
54.93333333,-6.738055556,Brockaghboy,In planning,measle_grey,
55.86166667,-2.298611111,Brockholes,In planning,measle_grey,
54.88527778,-1.837777778,Broom Hill (includes Sunnyside),Operational,small_red,8
57.57972222,-3.793888889,Broombank Farm,In planning,measle_grey,
55.74138889,-2.583888889,Brunta Hill,In planning,measle_grey,
52.00861111,-4.165555556,Bryn Llewlyn,In planning,measle_grey,
52.3675,-3.564166667,Bryn Titli,Operational,small_red,9.9
52.39861111,-3.255277778,Bryngydfa,In planning,measle_grey,
59.08305556,-2.664722222,Bu Farm,Operational,small_red,2.7
54.35638889,-1.385833333,Bullamoor,Consented,measle_turquoise,
53.48333333,-3.183333333,Burbo Bank,Operational,small_red,90
59.11972222,-3.121388889,Burgar Hill,Consented,measle_turquoise,
59.12027778,-3.145833333,Burgar Hill,Operational,small_red,5
59.12027778,-3.152777778,Burgar Hill,Operational,small_red,2.3
59.10944444,-3.140277778,Burgar Hill,Operational,small_red,3.5
58.35777778,-3.2225,Burn of Whilk,Consented,measle_turquoise,
56.21138889,-3.766944444,Burnfoot Hill,Operational,small_red,26
56.21666667,-3.776944444,Burnfoot Hill Ext,In planning,measle_grey,
57.5275,-2.383055556,Burnside of Idoch,In planning,measle_grey,
31.0875,41.10972222,Burntwood Sewage Treatment Works,In planning,measle_grey,
60.16472222,-1.236111111,Burradale Phase 1,Operational,small_red,1.98
60.16472222,-1.236111111,Burradale Phase 2,Operational,small_red,1.7
53.74916667,-0.114444444,Burton Pidsea Wind Farm,Consented,measle_turquoise,
52.35333333,-0.656388889,Burton Wold South,In planning,measle_grey,
52.35638889,-0.650555556,Burton Wold Wind Farm,Operational,small_red,20
52.36361111,-0.662222222,Burton Wold Wind Farm Extension,Consented,measle_turquoise,
54.67083333,-1.393333333,Butterwick Moor,Operational,small_red,18.8
57.46555556,-2.908888889,Cairnborrow,In planning,measle_grey,
57.52888889,-2.293888889,Cairncake Farm,In planning,measle_grey,
57.55694444,-2.371666667,Cairnhill,Operational,small_red,2.4
57.56722222,-2.379166667,Cairnhill Ext,In planning,measle_grey,
57.31,-2.821666667,Cairnmore Ext,In planning,measle_grey,
57.30833333,-2.825,Cairnmore Farm,Operational,small_red,2.55
55.83222222,-3.998333333,Calcarb Factory,In planning,measle_grey,
55.6375,-4.211944444,Calder Water Community windfarm,Consented,measle_turquoise,
54.43833333,-8.008333333,Callagheen,Operational,small_red,16.9
56.56638889,-3.833888889,Calliachar resubmission,Consented,measle_turquoise,
58.40361111,-3.295,Camster,Under construction,small_blue,
54.54888889,-6.948333333,Cappagh,In planning,measle_grey,
55.76166667,-3.013611111,Carcant,Operational,small_red,6
54.96361111,-6.638888889,Carhill Wind Turbine,Operational,small_red,0.23
50.35138889,-5.03,Carland Cross,Operational,small_red,6
50.35138889,-5.040555556,Carland Cross Repowering,Consented,measle_turquoise,
54.7225,-5.916944444,Carn Hill,Consented,measle_turquoise,
54.53333333,-0.995833333,Carnaby,Consented,measle_turquoise,
52.68083333,-3.570277778,Carnedd Wen,In planning,measle_grey,
52.55055556,-3.600277778,Carno A &amp; B,Operational,small_red,33.6
52.56444444,-3.602222222,Carno Extension (Carno 2),Operational,small_red,15.6
52.53305556,-3.593611111,Carno Wind Farm Extension - Phase III,In planning,measle_grey,
56.68472222,-3.126944444,Carrach,In planning,measle_grey,
56.43333333,-5.237222222,Carraig Gheal (Loch Awe),Consented,measle_turquoise,
53.08583333,-1.631944444,Carsington Pasture,Consented,measle_turquoise,
57.55027778,-2.3725,Castle of Auchry,Consented,measle_turquoise,
51.72305556,-5.008611111,Castle Pill  Farm - repowering,Operational,small_red,3.2
55.04166667,-7.180555556,Castlecraig,In planning,measle_grey,
54.06083333,-2.656944444,Caton Moor Repowering,Operational,small_red,16
53.42388889,-2.622777778,Causeway Bridges Farm,Consented,measle_turquoise,
53.76361111,-2.181388889,Causewayside Farm,In planning,measle_grey,
58.42944444,-3.508611111,Causeymire,Operational,small_red,48.3
58.42944444,-3.508611111,Causeymire Extension,Consented,measle_turquoise,
52.405,-3.750833333,Cefn Croes (inc Devils Bridge),Operational,small_red,58.5
52.64388889,-3.679166667,Cemmaes,Operational,small_red,15.3
52.66083333,-3.655555556,Cemmaes 3,In planning,measle_grey,
53.49972222,-1.6125,Chapel Farm,In planning,measle_grey,
53.95944444,-1.908611111,Chelker Reservoir,Operational,small_red,1.2
51.95111111,-1.198055556,Cherwell Valley Services,Consented,measle_turquoise,
52.85583333,0.688333333,Chiplow,In planning,measle_grey,
57.375,-2.932777778,Clashindarroch re-submission,Consented,measle_turquoise,
56.25555556,-3.062777778,Clatto Farm,In planning,measle_grey,
57.58944444,-2.066944444,Clayfords Farm,Consented,measle_turquoise,
56.10916667,-3.247222222,Clentrie Farm,In planning,measle_grey,
56.93861111,-2.303888889,Clochnahill,Consented,measle_turquoise,
54.96805556,-7.312777778,Clondermot,Consented,measle_turquoise,
55.15611111,-6.487222222,Cloonty,In planning,measle_grey,
55.49194444,-3.539722222,Clyde Extension,In planning,measle_grey,
55.46722222,-3.654444444,Clyde Wind Farm (North & Central),Under construction,small_blue,
53.74861111,-2.1675,Coal Clough,Operational,small_red,9.6
53.74861111,-2.1675,Coal Clough Repowering,In planning,measle_grey,
50.63722222,-4.518611111,Cold Northcott,Operational,small_red,6.3
52.57472222,-0.145833333,Coldham,Operational,small_red,14
52.59694444,-1.945277778,College Farm,In planning,measle_grey,
54.77777778,-6.178055556,Corby Knowe,In planning,measle_grey,
55.03333333,-6.256666667,Corkey,Operational,small_red,5
57.31361111,-4.895833333,Corriegarth Estate,Consented,measle_turquoise,
57.66444444,-4.778611111,Corriemoillie - resubmission,Consented,measle_turquoise,
57.33305556,-4.6725,Corrimony,Consented,measle_turquoise,
55.69944444,-2.634722222,Corsbie Moor,In planning,measle_grey,
56.53638889,-2.656111111,Corse Hill,In planning,measle_grey,
52.25944444,-0.201666667,Cotton Farm,Consented,measle_turquoise,
53.07583333,-1.304444444,Coultas Farm,Operational,small_red,0.33
55.67083333,-5.516944444,Cour,In planning,measle_grey,
55.64777778,-4.344444444,Cowans Law,In planning,measle_grey,
57.39277778,-2.424166667,Cowhill,Operational,small_red,0.8
55.21277778,-3.109444444,Craig Wind Farm,Operational,small_red,10
56.05527778,-4.050555556,Craigengelt Hill,Operational,small_red,20
54.61194444,-6.969722222,Cregganconroe,Consented,measle_turquoise,
54.64083333,-7.783888889,Crighshane Ext,In planning,measle_grey,
50.90777778,-4.493333333,Crimp,Operational,small_red,2.4
54.51916667,-7.030277778,Crockbaravally,Consented,measle_turquoise,
54.61416667,-6.954166667,Crockbrack,In planning,measle_grey,
24.08333333,-36.08333333,Crocknamona,In planning,measle_grey,
53.76194444,-0.332777778,Croda Chemicals Europe Hull Site,Operational,small_red,2
53.68361111,-2.131111111,Crook Hill (Rochdale app),Consented,measle_turquoise,
53.68361111,-2.131111111,Crook Hill Resubmission (Rochdale app),Consented,measle_turquoise,
53.67194444,-2.108888889,Crook Hilll reubmission (Calderdale),Consented,measle_turquoise,
51.00166667,-3.691388889,Cross Moor,In planning,measle_grey,
58.99777778,-2.985,Crowness Business Park (Site 3),Consented,measle_turquoise,
56.04,-5.156111111,Cruach Mhor,Operational,small_red,29.75
55.895,-2.513055556,Crystal Rig,Operational,small_red,50
55.895,-2.513055556,Crystal Rig 1a,Operational,small_red,12.5
55.90666667,-2.551666667,Crystal Rig 2 (extension),Operational,small_red,117.3
55.90416667,-2.543888889,Crystal Rig 2a (aka Ila Project),Operational,small_red,20.7
54.56805556,-7.505833333,Curraghamulkin,In planning,measle_grey,
54.93111111,-7.306388889,Curryfree,Operational,small_red,15
51.52166667,0.150555556,Dagenham,Operational,small_red,3.6
51.52166667,0.150555556,Dagenham II,Operational,small_red,2.3
52.80527778,-1.033611111,Dalby,Consented,measle_turquoise,
55.17027778,-3.673611111,"Dalswinton, Pennyland Moor",Operational,small_red,30
57.41111111,-4.131388889,Daviot,In planning,measle_grey,
53.5625,-1.704166667,Dearne Head,In planning,measle_grey,
52.73277778,-0.216944444,Deeping St Nicholas,Operational,small_red,16
50.63722222,-4.704166667,Delabole Repowering,Operational,small_red,9.2
50.79777778,-3.895555556,Den Brook,Consented,measle_turquoise,
50.46583333,-4.961388889,Denzell Downs (Bears Down ext),Consented,measle_turquoise,
52.91,-1.418611111,Derby Sewage Treatment Works,In planning,measle_grey,
55.32416667,-4.396944444,Dersalloch,In planning,measle_grey,
53.03611111,-3.448055556,Derwydd Bach,Consented,measle_turquoise,
55.62888889,-5.559722222,Deucheran Hill,Operational,small_red,15
53.88833333,-2.786388889,Dewlay Cheese,Operational,small_red,2
53.20222222,0.759444444,Docking Shoal,In planning,measle_grey,
54.97527778,-3.796944444,Doon Hill,In planning,measle_grey,
57.35111111,-3.131111111,Dorenell - originally known as Scaut Hill Wind Farm,Consented,measle_turquoise,
55.89777778,-2.261944444,Drone Hill,Under construction,small_blue,
56.91555556,-2.38,Droop Hill,In planning,measle_grey,
54.79111111,-6.050277778,Drumadarragh,In planning,measle_grey,
56.67944444,-3.356388889,Drumderg,Operational,small_red,36.8
56.93583333,-2.381111111,Drumlithie Feed Mill,Consented,measle_turquoise,
57.40916667,-2.731388889,Dummuie,Operational,small_red,12.25
55.8075,-2.860277778,Dun Law,Operational,small_red,17.16
55.8075,-2.860277778,Dun Law extension,Operational,small_red,29.75
23.12055556,-37.42416667,Dunaree Hill,In planning,measle_grey,
55.975,-2.438055556,Dunbar,In planning,measle_grey,
58.25888889,-3.501388889,Dunbeath,In planning,measle_grey,
55.08666667,-6.817777778,Dunbeg,Consented,measle_turquoise,
56.47777778,-3.045277778,Dundee Cold Stores Ltd,Consented,measle_turquoise,
55.60111111,-4.076944444,Dungavel Hill wind farm,Consented,measle_turquoise,
57.32944444,-4.310277778,Dunmaglass,Consented,measle_turquoise,
55.09777778,-6.8325,Dunmore,Consented,measle_turquoise,
51.86916667,-4.556944444,Dyffryn Brodyn,Operational,small_red,5.5
51.81055556,1.111666667,Earls Hall Farm,Consented,measle_turquoise,
56.08333333,-4.083333333,Earlsburn,Operational,small_red,37.5
56.08333333,-4.083333333,Earlsburn extension,Consented,measle_turquoise,
56.17416667,-3.103888889,Earlseat,Consented,measle_turquoise,
55.43111111,-3.452222222,Earlshaugh,In planning,measle_grey,
54.14611111,-0.576666667,East Heslerton,In planning,measle_grey,
55.74222222,-4.16,East Kilbride,Operational,small_red,0.6
57.21,-2.370555556,East Leylodge,In planning,measle_grey,
52.82555556,-1.341111111,East Midlands Airport,Operational,small_red,0.45
54.66416667,-3.5425,Eastman (Voridian),Operational,small_red,4
52.5875,-3.490833333,ECOCAS (Esgair Cwmowen Central and South,In planning,measle_grey,
52.65638889,0.685277778,Ecotech Centre,Operational,small_red,1.5
57.42916667,-6.421666667,Edinbane,Operational,small_red,41.4
57.55,-1.854722222,Ednie Farm,Operational,small_red,0.8
57.5525,-1.856388889,Ednie Farm II,In planning,measle_grey,
54.86722222,-6.178333333,Elginny Hill,In planning,measle_grey,
54.85,-6.06,Elliots Hill,Operational,small_red,5
53.97055556,-0.368333333,Elm Tree Farm,In planning,measle_grey,
56.49916667,-2.846944444,Ethiebeaton Farm,In planning,measle_grey,
55.17666667,-3.124166667,Ewe Hill,In planning,measle_grey,
55.17666667,-3.124166667,Ewe Hill (first 6 turbines),Consented,measle_turquoise,
52.32777778,1.124166667,Eye Airfield 2nd resubmission,In planning,measle_grey,
57.52972222,-4.646388889,Fairburn Estate,Operational,small_red,40
54.57361111,-3.525277778,Fairfield Farm,Operational,small_red,6.5
55.82694444,-2.663888889,Fallago Rig,Under construction,small_blue,
54.0525,-2.878333333,Fanny House Farm,In planning,measle_grey,
57.325,-4.094166667,Farr Windfarm,Operational,small_red,92
56.26694444,-3.9025,Feddal Farm,Consented,measle_turquoise,
53.42555556,-8.14E-02,Fen Farm Re-submission,Operational,small_red,16
51.65833333,-3.461944444,Ferndale,Operational,small_red,6.4
51.99805556,-1.358888889,Fewcott,Consented,measle_turquoise,
52.61694444,-3.723611111,Fferm Wynt Llaithddu,In planning,measle_grey,
51.59944444,-3.491388889,Fforch Nest Wind Farm pt1,Consented,measle_turquoise,
51.59944444,-3.491388889,Fforch Nest Wind Farm pt2,Consented,measle_turquoise,
51.67777778,-3.671944444,Ffynnon Oer,Operational,small_red,32
57.65722222,-3.58,Findhorn Foundation,Operational,small_red,0.75
56.05,-4.216666667,Fintry (The FREE Turbine),Operational,small_red,2.5
54.68472222,-3.493611111,Flimby Wind Farm,Consented,measle_turquoise,
56.05222222,-3.445,FMC Technologies,Operational,small_red,1.5
51.75666667,-3.308055556,Fochriw Wind Energy Project,Consented,measle_turquoise,
56.88861111,-2.4125,Fordoun Sawmill Wind Turbine,In planning,measle_grey,
50.89416667,-4.415833333,Forestmoor,Operational,small_red,2.7
58.60777778,-3.6675,Forss,Operational,small_red,2.32
58.60777778,-3.669722222,Forss Ext,Operational,small_red,5.2
52.57222222,-8.61E-02,Foundry Way,Consented,measle_turquoise,
50.29166667,-5.145555556,Four Burrows,Operational,small_red,4.5
54.62694444,-1.4425,Foxton Lane,In planning,measle_grey,
56.21555556,-3.743611111,Frandy Hill (Burnfoot Ext),In planning,measle_grey,
52.66388889,0.101111111,French Farm,Consented,measle_turquoise,
51.14472222,-4.11,Fullabrook Down,Operational,small_red,66
54.21166667,-3.15,Furness (Harlock Hill Repowering),In planning,measle_grey,
51.50583333,-3.101944444,G24I,Operational,small_red,2.3
57.59138889,-2.421388889,Gairnieston Farm,Operational,small_red,2.3
59.2975,-2.988611111,Gallowhill,Consented,measle_turquoise,
53.8475,-0.721111111,Gallymoor Landfill Site,In planning,measle_grey,
50.92055556,-4.274166667,Galsworthy,Consented,measle_turquoise,
50.30444444,-4.883888889,Garlenick Estate,Consented,measle_turquoise,
52.40888889,-3.274166667,Garreg Lwyd Hill,In planning,measle_grey,
55.15305556,-6.454722222,Garves Mountain / Dunloy,Operational,small_red,15
53.36027778,0.1625,Gayton le Marsh,In planning,measle_grey,
52.83972222,-0.106666667,Gedney Marsh (Red House),Operational,small_red,12
55.66805556,-5.754444444,Gigha Community,Operational,small_red,0.675
55.66638889,-5.751111111,Gigha Community Wind farm Ext,In planning,measle_grey,
56.14555556,-3.863055556,Girnal Farm,In planning,measle_grey,
55.24694444,-4.850555556,Girvan Community Hospital,Operational,small_red,0.1
52.56833333,-0.111388889,Glass Moor,Operational,small_red,16
52.51166667,-9.94E-02,Glass Moor Ext,Consented,measle_turquoise,
54.54555556,-1.928888889,GlaxoSmithKline,Operational,small_red,0.5
56.70527778,-2.458333333,GlaxoSmithKline (Cobden Street Factory),In planning,measle_grey,
56.38027778,-5.369722222,Glen Lonan,In planning,measle_grey,
54.83555556,-6.835833333,Glenconway,Consented,measle_turquoise,
55.53916667,-3.458055556,Glenkerie Wind Farm,Under construction,small_blue,
57.42444444,-2.642777778,Glens of Foudland,Operational,small_red,26
55.77916667,-4.050555556,Glentaggart,In planning,measle_grey,
50.87833333,6.39E-02,Glyndebourne Opera House,Operational,small_red,0.9
53.66583333,-0.890555556,Goole Fields,Consented,measle_turquoise,
53.70444444,-0.874444444,Goole II,In planning,measle_grey,
50.04611111,-5.198888889,Goonhilly Repowering,Operational,small_red,12
58.10916667,-3.936388889,Gordonbush,Under construction,small_blue,
57.44416667,-2.478333333,Gordonstown Hill,Consented,measle_turquoise,
54.54444444,-7.026111111,Gortfinbar,Consented,measle_turquoise,
57.65722222,-1.965277778,Gowanfold,In planning,measle_grey,
51.72861111,-2.616388889,Great Dunkilns Farm,Consented,measle_turquoise,
54.83305556,-1.429444444,Great Eppleton repowering,Operational,small_red,7.82
54.86694444,-3.075277778,Great Orton II,Operational,small_red,3.96
51.17888889,-4.115833333,Great Shelfin Farm (BT),In planning,measle_grey,
51.93333333,1.883333333,Greater Gabbard,Under construction,small_blue,
56.24888889,-3.666944444,Green Knowes,Operational,small_red,27
51.41805556,-0.983888889,Green Park,Operational,small_red,2
55.13222222,-2.151111111,Green Rigg,Under construction,small_blue,
55.90833333,-3.901944444,Greendykeside Wind Farm,Operational,small_red,4
57.57083333,-2.2575,Greenhill Croft,Consented,measle_turquoise,
57.20777778,-2.4275,Greenmoss,In planning,measle_grey,
52.51944444,-2.22E-03,Greenvale AP (potato packing),Consented,measle_turquoise,
56.5525,-3.782777778,Griffin,Under construction,small_blue,
54.74388889,-2.900277778,Grise,In planning,measle_grey,
54.64888889,-7.701111111,Gronan,In planning,measle_grey,
55.02555556,-6.249444444,Gruig,Operational,small_red,25
51.73055556,1.213888889,Gunfleet Sands I,Operational,small_red,108
51.71666667,1.213888889,Gunfleet Sands II,Operational,small_red,64.8
53.43333333,-3.633333333,Gwynt y Mor,Under construction,small_blue,
53.67388889,-1.086111111,H & H Pollington,In planning,measle_grey,
55.24583333,-4.723055556,"Hadyard Hill, Barr",Operational,small_red,130
52.88361111,-3.588333333,Hafoty Ucha 1,Operational,small_red,0.6
52.90027778,-3.588333333,Hafoty Ucha 2 extension,Operational,small_red,1.7
52.90027778,-4.388333333,Hafoty Ucha 3 extension,Operational,small_red,0.85
55.55055556,-3.918333333,Hagshaw Hill,Operational,small_red,15.6
55.55611111,-3.900833333,Hagshaw Hill Extension,Operational,small_red,26
53.87361111,-0.360833333,Hall Farm,Under construction,small_blue,
58.43333333,-3.406111111,Halsary,In planning,measle_grey,
53.78861111,-2.160833333,Hameldon Hill Ext,Consented,measle_turquoise,
59.09472222,-3.075277778,Hammars Hill,Operational,small_red,4.5
53.58,-1.234166667,Hampole,Consented,measle_turquoise,
55.35166667,-4.117777778,Hare Hill,Operational,small_red,13
54.7625,-1.416388889,Hare Hill (3Hs),Operational,small_red,5.08
55.34777778,-4.129722222,Hare Hill Extension,In planning,measle_grey,
55.73638889,-4.428888889,Harelaw Renewable Energy Park,In planning,measle_grey,
55.22111111,-3.573611111,Harestanes/Forest of Ae,Consented,measle_turquoise,
54.21888889,-3.157777778,Harlock Hill,Operational,small_red,2.5
52.44694444,1.715833333,Harrod UK Ltd,Consented,measle_turquoise,
55.75361111,-3.524444444,Harrows Law resubmission,In planning,measle_grey,
54.77527778,-1.456111111,Haswell Moor,Operational,small_red,10
54.20083333,-3.329166667,Haverigg II,Operational,small_red,2.4
54.20083333,-3.329166667,Haverigg III,Operational,small_red,3.4
53.53361111,-1.729166667,Hazlehead,Operational,small_red,6
52.35638889,-0.0075,Heath Farm,In planning,measle_grey,
52.99527778,-0.210555556,Heckington Fen,In planning,measle_grey,
54.85,-3.345833333,Hellrigg Re-submission,Under construction,small_blue,
56.91166667,-2.445555556,Herscha Hill,Operational,small_red,0.8
50.49611111,-4.389722222,High Down,Consented,measle_turquoise,
54.78416667,-1.447777778,High Haswell,Operational,small_red,4
54.76,-1.780833333,High Hedleyhope,Operational,small_red,2.25
54.76472222,-1.768333333,High Hedleyhope 2,Operational,small_red,5.2
54.46416667,-3.518333333,High Thorny,In planning,measle_grey,
54.69944444,-1.291388889,High Volts (3Hs),Operational,small_red,7.83
50.96888889,-4.123333333,Higher Darracott,Operational,small_red,2.55
57.47305556,-2.238611111,Hill of Balquhindachy,Operational,small_red,0.85
57.47305556,-2.238611111,Hill of Balquhindachy (Extension),Operational,small_red,1.7
57.40472222,-2.429444444,Hill of Burns,Operational,small_red,0.8
57.37694444,-2.3975,Hill of Eastertown (Mackies),Operational,small_red,2.55
57.31722222,-2.238333333,Hill of Fechel,In planning,measle_grey,
57.31555556,-2.114444444,Hill of Fiddes,Operational,small_red,6.9
55.04444444,-4.613055556,Hill of Ochiltree,In planning,measle_grey,
58.58138889,-3.145277778,Hill of Stroupster,Consented,measle_turquoise,
57.48666667,-3.0275,Hill of Towie (formerly Drummuir),Under construction,small_blue,
56.94166667,-2.2875,Hillhead of Auquhirie re-submission,Consented,measle_turquoise,
57.37694444,-2.354166667,Hillhead of Tullo,Consented,measle_turquoise,
52.40472222,-3.434722222,Hirddywell,In planning,measle_grey,
51.73861111,-3.721111111,Hirfynydd,In planning,measle_grey,
51.395,0.850833333,HMP Standford Hill,Consented,measle_turquoise,
53.10888889,-0.942222222,Hockerton Community Turbine,Operational,small_red,0.225
52.84083333,9.33E-02,Holbeach Marsh,In planning,measle_grey,
57.59888889,-2.481666667,Holm and Hollymill,In planning,measle_grey,
54.83833333,-1.676388889,Holmside Hall (3Hs),Operational,small_red,5.08
59.07583333,-3.188055556,Holodyke,Operational,small_red,0.9
53.80861111,-1.330277778,Hook Moor,Consented,measle_turquoise,
58.32333333,-6.700277778,Horshader,Consented,measle_turquoise,
57.61722222,-2.040833333,House O Hill,Operational,small_red,2.4
59.05527778,-2.845555556,Howe,Consented,measle_turquoise,
53.74361111,-0.238055556,Hull Waste Water Treatment Works,Operational,small_red,1.3
53.64,0.270277778,Humber Gateway,Consented,measle_turquoise,
54.45027778,-7.306944444,Hunters Hill,Operational,small_red,20
53.71361111,-2.377222222,Hyndburn,Consented,measle_turquoise,
54.56527778,-6.979722222,Inishative,Consented,measle_turquoise,
52.88611111,0.703611111,Jacks Lane,In planning,measle_grey,
54.78611111,-1.383333333,Junction House Farm,In planning,measle_grey,
53.59611111,-0.739722222,Keadby,Consented,measle_turquoise,
55.76083333,-4.798611111,Kelburn,Under construction,small_blue,
52.39944444,0.951666667,Kelmarsh,Consented,measle_turquoise,
51.45,1.136111111,Kentish Flats,Operational,small_red,90
52.41583333,1.698333333,Kessingland,Operational,small_red,4.1
58.04777778,-4.127777778,Kilbraur (Strathbrora),Operational,small_red,47.5
58.04777778,-4.127777778,Kilbraur extension,Operational,small_red,20
57.27333333,-2.968333333,Kildrummy,Consented,measle_turquoise,
54.89333333,-1.9375,Kiln Pit Hill,Under construction,small_blue,
55.92055556,-2.380555556,Kinegar Quarry,In planning,measle_grey,
59.15194444,-3.021111111,Kingarly,Consented,measle_turquoise,
52.725,-2.276388889,Kings Street,In planning,measle_grey,
53.28777778,-3.195833333,Kingspan,In planning,measle_grey,
53.99944444,-0.526111111,Kirkburn Grange,In planning,measle_grey,
54.24611111,-3.152222222,Kirkby Moor,Operational,small_red,4.8
55.08277778,-1.990555556,Kirkheaton,Operational,small_red,1.8
53.995,-1.643055556,"Knabs Ridge, Felliscliffe",Operational,small_red,16
54.33527778,-2.638333333,Lambrigg,Operational,small_red,6.5
54.60888889,-1.445833333,Lambs Hill,Consented,measle_turquoise,
54.72027778,-2.935277778,Lamonby,In planning,measle_grey,
54.01027778,-2.786944444,Lancaster University,In planning,measle_grey,
51.62027778,-3.895277778,Land at Bay Wastewater Treatment Works,In planning,measle_grey,
57.41361111,-2.782222222,Land at Duncanstown,In planning,measle_grey,
57.65833333,-2.375833333,Land at Easter Melrose,In planning,measle_grey,
57.51944444,-1.767777778,Land at Keith Inch and Green Hill,In planning,measle_grey,
57.58527778,-1.900555556,Land at Overside and Greenwellheads Farms,Consented,measle_turquoise,
57.29027778,-2.280277778,Land at Shielbog,In planning,measle_grey,
56.82777778,-2.522222222,Land to North Eastof Brigton Farm,In planning,measle_grey,
56.81972222,-2.426944444,Land to South West of Smiddyhill Farm,Consented,measle_turquoise,
55.47277778,-2.941111111,Langhope Rig,Consented,measle_turquoise,
54.795,-1.667222222,Langley Park/Long Edge,Operational,small_red,8
58.28861111,-3.425277778,Latheronwheel,In planning,measle_grey,
54.43666667,-7.345,Lendrums Bridge Phase I,Operational,small_red,5.94
54.43666667,-7.345,Lendrums Bridge Phase II,Operational,small_red,7.3
56.52888889,-2.931111111,Leyshade Farm,In planning,measle_grey,
58.54166667,-3.590833333,Lieurary Hill Resubmission,In planning,measle_grey,
52.38638889,-1.1625,Lilibourne Wind Farm,In planning,measle_grey,
53.23611111,0.128333333,Lincolnshire Poacher,Consented,measle_turquoise,
53.18333333,0.483333333,Lincs,Under construction,small_blue,
53.11611111,-1.146666667,Lindhurst Wind Farm,Operational,small_red,9
57.42166667,-7.361111111,Liniclate Wind Farm,Operational,small_red,0.9
54.73111111,-5.923333333,Lisglass,Consented,measle_turquoise,
54.00972222,-0.254166667,Lissett Airfield,Operational,small_red,30
57.63972222,-2.611388889,Little Blairshinnoch,In planning,measle_grey,
50.9625,0.820277778,Little Cheyne Court,Operational,small_red,59.8
56.10944444,-3.303888889,Little Raith,Under construction,small_blue,
52.39694444,-3.331388889,Llanbadarn Fynydd,In planning,measle_grey,
52.6425,-3.563055556,Llanbrynmair,In planning,measle_grey,
52.43638889,-3.413611111,Llandinam P&amp;L,Operational,small_red,30.9
52.43638889,-3.413611111,Llandinam repowering,In planning,measle_grey,
52.30722222,-4.028611111,Llangwyryfon repowering,Operational,small_red,9.35
53.36333333,-4.449722222,Llyn Alaw,Operational,small_red,20.4
53.10027778,-3.508611111,Llyn Brenig,Consented,measle_turquoise,
51.64555556,-3.592222222,Llynfi Afan Renewable Energy Park,In planning,measle_grey,
53.11805556,-3.6525,Llys Dymper,In planning,measle_grey,
57.53944444,-2.200833333,Loanhead of Fedderate,In planning,measle_grey,
56.30666667,-3.430277778,Lochelbank,Operational,small_red,9.6
55.70472222,-3.946111111,Lochhead Farm,Operational,small_red,6.15
57.66888889,-4.81,Lochluichart,Under construction,small_blue,
57.67305556,-4.813888889,Lochluichart Ext,In planning,measle_grey,
53.75722222,-0.937777778,Loftsome Bridge Water Treatment Works,Operational,small_red,2.6
51.63333333,1.533333333,London Array I,Under construction,small_blue,
51.63333333,1.533333333,London Array II,Consented,measle_turquoise,
52.55944444,0.102222222,Long Hill Road,Operational,small_red,2
54.97138889,-6.436388889,Long Mountain,Consented,measle_turquoise,
55.67305556,-2.836388889,Long Park,Operational,small_red,38
53.31,-1.243611111,Loscar Farm,Operational,small_red,4.5
52.56416667,1.183611111,Lotus Cars Re-submission,In planning,measle_grey,
54.62694444,-7.605833333,Lough Hill Resubmission,Operational,small_red,7.8
52.49694444,-1.173611111,Low Spinney,Operational,small_red,8
54.59277778,-3.575833333,Lowca,Operational,small_red,4.62
57.64694444,-2.346666667,Lower Cushnie,In planning,measle_grey,
53.76805556,-1.9325,Lower Hazel Hurst Farm,In planning,measle_grey,
51.67972222,-2.274722222,Lynch Knoll,Operational,small_red,0.5
55.20388889,-1.560833333,Lynemouth,Under construction,small_blue,
53.1275,0.436111111,Lynn &amp; Inner Dowsing,Operational,small_red,194.4
52.34388889,-1.1575,M1 J18 Wind Turbines,In planning,measle_grey,
53.32111111,0.2325,Mablethorpe,Operational,small_red,1.2
51.76361111,-3.650277778,Maesgwyn,Operational,small_red,26
57.39805556,-2.141111111,Mains of Auchreddie,In planning,measle_grey,
57.52361111,-3.056111111,Mains of Bodinfinnoch,In planning,measle_grey,
57.31,-2.245555556,Mains of Bogfechel,Consented,measle_turquoise,
57.46972222,-2.508888889,Mains of Hatton,Under construction,small_blue,
52.57166667,0.120555556,March Sewage Works,Consented,measle_turquoise,
54.99361111,-4.9325,Mark Hill,Operational,small_red,56
53.53305556,-1.239722222,Marr,Under construction,small_blue,
43.26944444,42.52138889,Mars Complimentary Petcare,Consented,measle_turquoise,
53.13555556,-3.716666667,Mawla (Moel Maelogen),Operational,small_red,3.9
52.56111111,-0.172222222,McCains Foods,Operational,small_red,9
55.91833333,-5.463055556,Meall Mhor,In planning,measle_grey,
57.02055556,-2.286666667,Meikle Carewe resubmission,Consented,measle_turquoise,
55.09027778,-1.591111111,Merck Sharp,Operational,small_red,4
56.18222222,-3.008333333,Methil Docks,Operational,small_red,0.75
57.39166667,-2.297777778,Methlick Farmers Wind Energy Project,Operational,small_red,9.2
56.49972222,-2.896944444,Michelin Tyre Factory,Operational,small_red,4
56.96444444,-2.460555556,Mid Hill 1,Consented,measle_turquoise,
56.96444444,-2.460555556,Mid Hill 2,In planning,measle_grey,
55.49777778,-1.768888889,Middlemoor,Consented,measle_turquoise,
55.74583333,-4.408611111,Middleton,Consented,measle_turquoise,
57.53555556,-1.891388889,Middleton of Rora,Consented,measle_turquoise,
51.65444444,0.875555556,Middlewick,Consented,measle_turquoise,
57.13444444,-4.832222222,Millennium (Glenmoriston),Operational,small_red,40
57.13444444,-4.832222222,Millennium (Glenmoriston) extension,Operational,small_red,10
57.13444444,-4.832222222,Millennium Ext 2,Operational,small_red,15
55.73666667,-4.776944444,Millour Hill,Under construction,small_blue,
52.13611111,-0.664444444,Milton Keynes,Operational,small_red,14
55.25138889,-3.531666667,Minnygap resubmission,In planning,measle_grey,
55.11277778,-3.216388889,Minsca Farm,Operational,small_red,36.8
53.13555556,-3.723333333,Moel Maelogen Extension,Operational,small_red,11.7
55.26694444,-6.542222222,Monnaboy,In planning,measle_grey,
57.60722222,-2.046666667,Mormond Hill,In planning,measle_grey,
56.09166667,-3.323055556,Mossmoran,Consented,measle_turquoise,
57.39277778,-4.051111111,Moy Estate,In planning,measle_grey,
58.02055556,-6.540277778,Muaitheabhal,Consented,measle_turquoise,
58.02055556,-6.540277778,Muaitheabhal - Secondary Application,Consented,measle_turquoise,
57.61,-2.734444444,Muirake,Under construction,small_blue,
55.76111111,-3.583888889,Muirhall - resubmission,Operational,small_red,12.3
56.06361111,-4.031666667,Muirpark,In planning,measle_grey,
56.43388889,-3.815555556,Mull Hill,In planning,measle_grey,
54.68944444,-7.077777778,Mullaghturk,In planning,measle_grey,
54.37888889,-6.853611111,Mullynaveagh,Consented,measle_turquoise,
52.58027778,-3.433055556,Mynydd Clogau,Operational,small_red,14.45
52.58027778,-3.433055556,Mynydd Clogau Extn,In planning,measle_grey,
52.455,-3.972222222,Mynydd Gorddu,Operational,small_red,10.2
52.63555556,-3.465,Mynydd Waun Fawr,In planning,measle_grey,
51.7775,-3.921944444,Mynydd y Betws,Consented,measle_turquoise,
51.75833333,-3.955,Mynydd y Gwair,In planning,measle_grey,
51.72,-3.853055556,Mynydd y Gwrhyd Resubmission,Consented,measle_turquoise,
52.44333333,-3.711111111,Mynydd y Gwynt / Sweetlamb,In planning,measle_grey,
55.69166667,-4.278333333,Myres Hill,Operational,small_red,1.9
53.0125,-3.5025,Nant Bach Re-submission,Consented,measle_turquoise,
51.55138889,-2.958888889,Nash Treatment Works,In planning,measle_grey,
52.62027778,-3.379722222,Near Esgair Cwm Owen,In planning,measle_grey,
55.75027778,-4.468888889,Neilston,Consented,measle_turquoise,
52.47972222,1.759722222,Ness Point,Operational,small_red,2.75
52.44833333,-0.756666667,New Albion,Consented,measle_turquoise,
55.47833333,-1.908611111,New Bewick Farm,In planning,measle_grey,
57.29472222,-2.501111111,Newbigging Farm,Consented,measle_turquoise,
55.1775,-3.315833333,Newfield Wind Farm,In planning,measle_grey,
54.86138889,-2.875555556,Newlands Farm (1 turbine),In planning,measle_grey,
57.5425,-2.312777778,Newstead,Operational,small_red,0.8
52.99722222,-1.2975,Newthorpe Sewage Treatment Works,Consented,measle_turquoise,
53.50861111,8.33E-03,Newton Marsh Treatment Works,Consented,measle_turquoise,
57.70888889,-3.980833333,Nigg Hill,In planning,measle_grey,
54.92,-1.468055556,Nissan Motors Plant,Operational,small_red,3.96
54.92,-1.468055556,Nissan Motors Plant Extn,Operational,small_red,1.98
56.16527778,-3.179444444,Noble Foods,Consented,measle_turquoise,
57.49166667,-2.623888889,North Balnoon,In planning,measle_grey,
53.43333333,-3.4,North Hoyle,Operational,small_red,60
57.49666667,-2.194722222,North Mains Auchmaliddie,In planning,measle_grey,
52.62861111,0.733055556,North Pickenham Airfield,Consented,measle_turquoise,
52.62611111,0.749722222,North Pickenham Windfarm,Operational,small_red,14.4
57.58583333,-2.005833333,North Redbog,Operational,small_red,1.6
54.8675,-5.086944444,North Rhins,Operational,small_red,22
58.31305556,-6.709444444,North Tolsta,Consented,measle_turquoise,
60.66972222,-1.003333333,North Yell,Consented,measle_turquoise,
58.87083333,-2.894722222,Northfield wind turbines (Burray),Operational,small_red,0.9
57.71444444,-4.434166667,Novar,Operational,small_red,17
57.71444444,-4.434166667,Novar Extension,Under construction,small_blue,
52.20361111,-0.661111111,Nun Wood,Consented,measle_turquoise,
55.57888889,-3.992222222,Nutberry Hill,Consented,measle_turquoise,
52.63555556,-3.61E-02,Nutsgrove Farm,Consented,measle_turquoise,
51.69194444,-3.170277778,Oakdale Business Park,In planning,measle_grey,
54.65944444,-3.559444444,Oldside,Operational,small_red,5.4
54.3325,-7.886388889,Ora More,In planning,measle_grey,
44.93027778,34.82638889,Orchard End Resubmission,Consented,measle_turquoise,
52.08694444,-0.783333333,Orchard Way,In planning,measle_grey,
58.82666667,-3.326111111,Ore Brae,Operational,small_red,0.9
54.1,-3.416666667,Ormonde,Under construction,small_blue,
53.3875,-1.284166667,Ossington Road,Consented,measle_turquoise,
50.69305556,-4.608055556,Otterham B,In planning,measle_grey,
53.6675,-0.101111111,Out Newton,Operational,small_red,9.1
53.77416667,-1.934722222,Ovenden Moor,Operational,small_red,9.2
53.78138889,-1.937777778,Ovenden Moor Repowering,In planning,measle_grey,
55.72722222,-4.254722222,Over Enoch & Ardoch,Consented,measle_turquoise,
54.80833333,-7.331666667,Owenreagh,Operational,small_red,5
54.80833333,-7.331666667,Owenreagh Extension,Operational,small_red,5.1
51.60638889,-3.495833333,Pant-y-wal,Consented,measle_turquoise,
51.85777778,-4.577777778,Parc Cynog,Operational,small_red,3.6
58.50388889,-6.505833333,Park Estate (Pairc),In planning,measle_grey,
55.82666667,-3.653611111,Pates Hill,Operational,small_red,14
57.44611111,-3.476111111,Pauls Hill,Operational,small_red,64.4
52.70361111,-3.576388889,Pen Y Cymoedd,In planning,measle_grey,
55.85777778,-4.577777778,Pendine (Parc Cynog Extension I),Operational,small_red,4.8
55.9025,-2.2975,Penmanshiel,In planning,measle_grey,
53.38944444,-1.284722222,Penny Hill,Consented,measle_turquoise,
58.25888889,-6.510833333,Pentland Road (incorporating Beinn Mholach,Consented,measle_turquoise,
54.58277778,-7.451388889,Pigeon Top,Consented,measle_turquoise,
54.87333333,-2.955277778,Pirelli,Consented,measle_turquoise,
55.83944444,-2.841388889,Pogbie Farm,Consented,measle_turquoise,
54.58166667,-7.474444444,Pollnalaght (Pigeon Top),Consented,measle_turquoise,
52.89888889,1.179722222,Pond Farm,In planning,measle_grey,
53.45861111,-3.030277778,Port of Liverpool / Mersey Docks,Operational,small_red,10
51.43194444,0.738055556,Port of Sheerness,Consented,measle_turquoise,
51.7725,-4.672777778,Princes Gate Spring Water,In planning,measle_grey,
52.75694444,0.446666667,Queen Elizabeth Hospital resubmission,Consented,measle_turquoise,
53.2925,0.776111111,Race Bank,In planning,measle_grey,
52.46055556,-0.12,Ramsey Repowering,Operational,small_red,1.8
52.495,2.39E-02,Ransonmoor Farm,Operational,small_red,6
52.495,2.39E-02,Ransonmoor Phase II,Operational,small_red,4
55.15472222,-2.009444444,Ray Estate,Consented,measle_turquoise,
53.69888889,-2.160555556,"Reaps Moss, Britannia",Consented,measle_turquoise,
54.64611111,-1.321111111,Red Gap Farm,Consented,measle_turquoise,
52.45055556,-0.0075,Red Tile,Operational,small_red,24
52.31444444,-3.001111111,Reeves Hill,Consented,measle_turquoise,
52.40333333,-3.882222222,Rheidol,Operational,small_red,2.4
56.20305556,-3.7875,Rhodders (Burnfoot Ext),In planning,measle_grey,
53.41277778,-4.431666667,Rhyd-y-Groes,Operational,small_red,7.2
53.36666667,-3.65,Rhyl Flats,Operational,small_red,90
55.02166667,-6.820277778,Rigged Hill,Operational,small_red,5
54.75,-3.683333333,Robin Rigg,Operational,small_red,180
54.82944444,-6.048333333,Robinsons,Consented,measle_turquoise,
52.20305556,-4.78E-02,Rockery Farm,Consented,measle_turquoise,
58.00388889,-4.549444444,Rosehall Woods,Under construction,small_blue,
57.53722222,-3.371388889,Rothes (Cairn Uish),Operational,small_red,50.6
57.53694444,-3.379722222,Rothes Extension - Resubmission,Consented,measle_turquoise,
59.085,-2.683888889,Rothiesholm Head,Consented,measle_turquoise,
55.7375,-2.861111111,Rowantree,In planning,measle_grey,
52.33888889,1.128055556,Roy Humphrey Group,Consented,measle_turquoise,
54.63305556,-1.6375,Royal Oak,Consented,measle_turquoise,
53.45861111,-3.030277778,Royal Seaforth Dock,Operational,small_red,3.6
53.53194444,-1.669444444,Royd Moor,Operational,small_red,6.5
56.04361111,-3.965277778,Rullie,In planning,measle_grey,
58.3475,-3.356388889,Rumster Forest Community Wind Farm,In planning,measle_grey,
53.72555556,-0.920833333,Rusholme,Operational,small_red,24
53.84555556,-0.609166667,Sancton Hill resubmission,Under construction,small_blue,
59.18666667,-2.771666667,Sandybanks,Consented,measle_turquoise,
53.63972222,-0.473888889,Saxby Wold resubmission,In planning,measle_grey,
53.72194444,-2.1925,Scar End Farm,In planning,measle_grey,
53.66694444,-2.273888889,Scout Moor,Operational,small_red,65
54.45333333,-7.338333333,Screggagh,Operational,small_red,20
52.63333333,1.783333333,Scroby Sands,Operational,small_red,60
54.49111111,-1.254444444,Seamer re-submission Pt1,Consented,measle_turquoise,
54.49111111,-1.254444444,Seamer re-submission Pt2,Consented,measle_turquoise,
54.64888889,-7.701111111,Seegronan,Consented,measle_turquoise,
52.70333333,-1.141666667,Severn Trent Sewage Treatment Works,Consented,measle_turquoise,
58.33277778,-6.069722222,Shawbost & Dalmore,In planning,measle_grey,
50.82944444,0.270833333,Shepham Lane,In planning,measle_grey,
54.72472222,-1.309166667,Sheraton,In planning,measle_grey,
53.11666667,1.133333333,Sheringham Shoal,Under construction,small_blue,
57.49388889,-2.534722222,Shielburn Farm,In planning,measle_grey,
56.8475,-2.410555556,Shiels Farm,In planning,measle_grey,
52.64277778,0.886666667,Shipdham Resubmission,In planning,measle_grey,
51.76305556,-4.711388889,Shipping Hill Plantation,Consented,measle_turquoise,
56.35472222,-4.978333333,Shira,In planning,measle_grey,
51.255,-2.581666667,Shooters Bottom Farm,Operational,small_red,2
54.67111111,-3.543055556,Siddick,Operational,small_red,4.2
59.13138889,-3.149166667,Sigurd,Operational,small_red,1.3
51.05444444,-2.3275,Silton resubmission,In planning,measle_grey,
57.63611111,-2.617222222,Site at Backhill Of Culbirnie,In planning,measle_grey,
57.63111111,-2.617777778,Site at Hill of Culbirnie,In planning,measle_grey,
57.37416667,-2.386666667,Site at Hill of Easterton,In planning,measle_grey,
53.73972222,-0.800555556,Sixpenny Wood,Consented,measle_turquoise,
56.16722222,-3.188055556,Skeddoway Farm,In planning,measle_grey,
57.44666667,-2.185,Skelmonae,Operational,small_red,3.2
54.35972222,-7.2075,Slatbeg,In planning,measle_grey,
54.5075,-7.105277778,Slieve Divena 1,Operational,small_red,30
54.5075,-7.105277778,Slieve Divena Extension,Consented,measle_turquoise,
54.83527778,-7.168055556,Slieve Kirk,Operational,small_red,27.6
54.83527778,-7.168055556,Slieve Kirk Ext,In planning,measle_grey,
54.16,-7.62,Slieve Rushen Repowering,Operational,small_red,54
54.64611111,-7.570555556,Slieveglass,In planning,measle_grey,
55.03916667,-6.272222222,Slievenahanaghan,Operational,small_red,1
54.97555556,-6.825277778,Smulgedon,In planning,measle_grey,
53.83638889,-0.605,Sober Hill,Consented,measle_turquoise,
51.56472222,-2.959444444,Solutia UK Ltd,Operational,small_red,5
55.10416667,-3.108055556,Solwaybank Resubmission,In planning,measle_grey,
52.70916667,1.655555556,Somerton,Operational,small_red,1.5
56.25777778,-2.834166667,South Cassingray,In planning,measle_grey,
44.36666667,55.46666667,South Sharpley,Consented,measle_turquoise,
52.69861111,-2.113333333,South Staffordshire College,Consented,measle_turquoise,
53.78694444,-0.864722222,Spaldington Airfield,Consented,measle_turquoise,
53.53194444,-1.669444444,Spicer Hill,Consented,measle_turquoise,
56.13222222,-3.276111111,Spittal Farm,In planning,measle_grey,
58.46,-3.4275,Spittal Hill,In planning,measle_grey,
52.0825,-1.169722222,Spring Farm Ridge,In planning,measle_grey,
59.27138889,-2.568333333,Spurness,Consented,measle_turquoise,
59.18611111,-2.689444444,Spurness Wind Farm,Operational,small_red,8.25
50.47666667,-4.8625,St Breock,Operational,small_red,4.95
57.57277778,-1.919722222,St Fergus Moss,Consented,measle_turquoise,
56.86527778,-2.241111111,St Johns Hill,Consented,measle_turquoise,
57.42277778,-2.334444444,St Johns Wells,Operational,small_red,2.4
52.88416667,-2.170555556,Stafford North Services (M6),Consented,measle_turquoise,
52.57472222,-0.145833333,Stags Holt,Operational,small_red,18
52.57472222,-0.145833333,Stags Holt Extension,Operational,small_red,2
53.60416667,-0.1625,Stallingborough,In planning,measle_grey,
55.95416667,-2.678611111,Standingstone,In planning,measle_grey,
55.79277778,-2.023888889,Steps of Grace Community Owned Wind Turbine,Consented,measle_turquoise,
52.97166667,-1.048333333,Stoke Bardolph Farm,In planning,measle_grey,
52.13805556,-0.812777778,Stoke Heights,In planning,measle_grey,
55.18527778,-4.908888889,Straid Farm,In planning,measle_grey,
57.62777778,-2.581111111,Strath of Brydock,Operational,small_red,4.6
57.62777778,-2.581111111,Strath of Brydock ext,Operational,small_red,2.3
58.48972222,-4.043333333,Strathy North,Consented,measle_turquoise,
58.42972222,-4.066111111,Strathy South,In planning,measle_grey,
52.04472222,-2.155833333,Strensham Wind Cluster,In planning,measle_grey,
52.44944444,1.537777778,Suffolk 3 - Laurels Farm Resubmission,In planning,measle_grey,
53.74611111,-6.81E-02,Sunderland (aka Roos) resubmission,Under construction,small_blue,
52.65694444,0.700833333,Swaffham II,Operational,small_red,1.8
52.66222222,0.703055556,Swaffham II Extension,In planning,measle_grey,
51.60916667,-3.922222222,Swansea Docks,Operational,small_red,0.25
52.42583333,-1.1525,Swinford,Under construction,small_blue,
51.56277778,-3.485833333,Taff Ely,Operational,small_red,9
54.71638889,-3.371666667,Tallentire Hill,Consented,measle_turquoise,
55.49388889,-5.679166667,Tangy,Operational,small_red,12.75
55.49388889,-5.679166667,Tangy Extension,Operational,small_red,5.95
54.54805556,-7.553888889,Tappaghan Mountain,Operational,small_red,19.5
54.54805556,-7.553888889,Tappaghan Mountain Extension,Operational,small_red,9
53.75416667,-4.44E-02,Tedder Hill,Consented,measle_turquoise,
54.63333333,-1.083333333,Teesside,Consented,measle_turquoise,
54.30444444,-7.335,Teiges,In planning,measle_grey,
51.5725,-2.858611111,Tesco Distribution Centre,Consented,measle_turquoise,
52.35027778,-1.166111111,Tesco Distribution Centre,Operational,small_red,0.8
52.35333333,-1.156666667,Tesco Power Logistics,Operational,small_red,0.85
52.35194444,-1.1475,Tesco Stores Ltd,Consented,measle_turquoise,
51.41666667,1.616666667,Thanet,Operational,small_red,300
52.75055556,0.166111111,The Grange,Consented,measle_turquoise,
53.12944444,0.248055556,The Hollies Wind Farm,Operational,small_red,2.6
53.38555556,-1.3825,The University of Sheffield,Under construction,small_blue,
59.12527778,-3.154444444,"Thorfinn, Burgar Hill",Operational,small_red,2.75
54.07055556,-0.301666667,Thornholme Field,In planning,measle_grey,
54.58805556,-7.626388889,Thornog,Consented,measle_turquoise,
54.58805556,-7.626388889,Thornog Ext,In planning,measle_grey,
54.6675,-7.681944444,Tievenameenta,Consented,measle_turquoise,
57.39972222,-2.578611111,Tillymorgan,In planning,measle_grey,
51.64555556,-4.014722222,Timet Site,In planning,measle_grey,
53.11444444,-3.488055556,Tir Mostyn &amp; Foel Goch,Operational,small_red,21.25
56.53555556,-6.757777778,Tiree Community Wind Turbine,Operational,small_red,0.9
52.59361111,-3.494166667,Tirgwynt,Consented,measle_turquoise,
52.42694444,1.184166667,Tivetshall Wind Farm,In planning,measle_grey,
55.77222222,-2.806666667,Toddleburn,Operational,small_red,27.6
53.71972222,-2.154444444,Todmorden Moor resubmission,Consented,measle_turquoise,
57.38222222,-3.881111111,Tom Nan Clach,In planning,measle_grey,
55.89777778,-2.261944444,Tormywheel,Consented,measle_turquoise,
55.17166667,-4.301666667,Torrs Hill,Under construction,small_blue,
54.76027778,-1.7825,Tow Law,Operational,small_red,2.3
54.71305556,-1.419444444,Trimdon Grange,Operational,small_red,5.2
53.37444444,-4.345277778,Trysglwyn,Operational,small_red,5.6
54.41638889,-7.814722222,Tullinoid,In planning,measle_grey,
56.83527778,-2.399722222,Tullo,Operational,small_red,17.5
56.83388889,-2.391944444,Tullo Ext,In planning,measle_grey,
53.60944444,-0.913611111,Tween Bridge Moor,Under construction,small_blue,
53.69916667,-0.87,Twin Rivers Wind Farm,Consented,measle_turquoise,
57.31722222,-2.184166667,Udny Community Wind Turbine,In planning,measle_grey,
55.32722222,-3.992222222,Ulzieside,In planning,measle_grey,
57.40055556,-2.0675,Upper Ardgrain,Operational,small_red,2.4
52.36388889,1.535833333,Upper Holton,Consented,measle_turquoise,
58.95444444,-2.731666667,Upper Stove,Consented,measle_turquoise,
52.40861111,1.219166667,Upper Vaunces Farm,In planning,measle_grey,
57.31888889,-2.876666667,Upper Wheedlemont Farm,In planning,measle_grey,
50.68777778,-1.456944444,Vectis,In planning,measle_grey,
50.59722222,-1.225277778,Ventnor Golf Club,In planning,measle_grey,
60.33194444,-1.239166667,Viking Wind Project,In planning,measle_grey,
52.15722222,0.312777778,Wadlow Wind Farm,Consented,measle_turquoise,
53.10083333,0.1675,Wainfleet St Mary,In planning,measle_grey,
53.22944444,-0.911944444,Walker & Sons (Hauliers),Consented,measle_turquoise,
54.67416667,-1.384444444,"Walkway, High Swainston",Operational,small_red,14
54.06666667,-3.533333333,Walney I,Operational,small_red,183.6
54.06666667,-3.533333333,Walney II,Under construction,small_blue,
55.51861111,-1.795555556,Wandylaw Moor,Consented,measle_turquoise,
55.12222222,-1.490277778,Wansbeck Blyth Harbour,Operational,small_red,2.7
55.12222222,-1.490277778,Wansbeck Blyth Harbour Repowering,Consented,measle_turquoise,
55.71055556,-4.723333333,Wardlaw Wood (Dalry Community Windfarm),Operational,small_red,18
52.3275,-1.113888889,Watford Lodge,Consented,measle_turquoise,
58.44138889,-3.240833333,Wathegar,Consented,measle_turquoise,
58.43694444,-3.221111111,Wathegar Extension,In planning,measle_grey,
58.47194444,-3.313333333,Watten (Bilbster),Operational,small_red,3.9
52.52777778,-3.5425,Waun Garno,In planning,measle_grey,
51.70111111,-4.985555556,Wear Point,Consented,measle_turquoise,
52.78305556,-0.919166667,Welby Grange Farm,Consented,measle_turquoise,
53.00777778,-3.38,Wern Ddu (Craig Lelo),Operational,small_red,9.2
64.53222222,26.38416667,West Browncastle,Consented,measle_turquoise,
54.76805556,-1.821666667,West Durham,Operational,small_red,24
58.82666667,-3.123888889,West Hill,Consented,measle_turquoise,
57.50055556,-2.03,West Knock Farm,Consented,measle_turquoise,
53.96666667,-3.433333333,West of Duddon Sands,Consented,measle_turquoise,
57.66833333,-3.448055556,Wester Buthill Farm,In planning,measle_grey,
55.92666667,-2.457777778,Wester Dod - Aikengall Extension,In planning,measle_grey,
53.80583333,0.15,Westermost Rough,Consented,measle_turquoise,
51.61722222,-1.669166667,Westmill,Operational,small_red,6.5
54.77222222,-3.35,Westnewton Wind Farm,Consented,measle_turquoise,
52.69527778,1.091666667,Weston Longville,Consented,measle_turquoise,
59.2975,-2.988611111,Westray Community wind turbine,Operational,small_red,0.9
55.22222222,-4.041666667,Wether Hill,Operational,small_red,18.2
54.81,-6.108611111,Whappstown,In planning,measle_grey,
54.72666667,-3.2825,Wharrels Hill,Operational,small_red,10.4
50.2425,-5.128055556,Wheal Jane Tin Mine,In planning,measle_grey,
50.89861111,-4.351666667,Wheelers Cross,In planning,measle_grey,
52.59638889,0.128055556,White Mill (Coldham ext),Under construction,small_blue,
55.68722222,-4.228611111,Whitelee Phase I extension,Under construction,small_blue,
55.68722222,-4.228611111,Whitelee Phase II extension,Under construction,small_blue,
55.68722222,-4.228611111,"Whitelee, Eaglesham Moor (Part)",Operational,small_red,322
55.32361111,-4.022777778,Whiteside Hill,Consented,measle_turquoise,
52.55666667,-0.1725,Whittlesey,Operational,small_red,1.8
55.49388889,-2.381388889,Whitton,In planning,measle_grey,
55.29194444,-4.205,Windy Standard,Operational,small_red,21.6
55.29194444,-4.398611111,Windy Standard Extension,Consented,measle_turquoise,
55.24916667,-1.867777778,Wingates,Consented,measle_turquoise,
55.23333333,-1.846944444,Wingates Moor,In planning,measle_grey,
54.86416667,-3.0875,Winscales,Operational,small_red,1.98
54.86416667,-3.0875,Winscales extension,Operational,small_red,6.8
54.64222222,-3.496944444,Winscales Moor,Operational,small_red,5.95
52.36638889,-1.060833333,Winwick,In planning,measle_grey,
53.84666667,-0.162222222,Withernwick resubmission,Consented,measle_turquoise,
51.18583333,-2.954166667,Withy End Farm,In planning,measle_grey,
54.80305556,-6.094166667,Wolf Bog,Operational,small_red,10
57.31,-2.201111111,Woodlands Farm (Turbine 1),In planning,measle_grey,
57.31111111,-2.203055556,Woodlands Farm (Turbine 2),In planning,measle_grey,
53.98333333,-1.574444444,Woodlane,In planning,measle_grey,
52.34277778,-0.298611111,Woolley Hill,In planning,measle_grey,
52.63666667,-5.67E-02,Wryde Croft Re-submission,Consented,measle_turquoise,
52.62944444,-0.558055556,WW Steadfold Lane,In planning,measle_grey,
54.83888889,-1.417777778,WWA High Sharpley,Operational,small_red,2.6
50.17194444,-5.152222222,WWF Roskrow Barton,Operational,small_red,1.7
53.78861111,-2.160833333,WWP Hameldon Hill,Operational,small_red,4.5
54.78083333,-3.159722222,WWU High Pow,Operational,small_red,3.9
52.37166667,-1.146944444,Yelvertoft Wind Farm,Consented,measle_turquoise,
57.37972222,-2.159444444,Yowlie,In planning,measle_grey,
53.39444444,-4.394166667,Ysgellog Farm,Consented,measle_turquoise,
